[{"id":"restaurante-el-callejon-albacete","name":"Restaurante El Callejon","image_url":"https://s3-media2.fl.yelpcdn.com/bphoto/4EOrCKKataA5C04p0IlW3w/o.jpg","is_closed":false,"url":"https://www.yelp.es/biz/restaurante-el-callejon-albacete?adjust_creative=d2XTCJUalK6G6pYoI47s2A&utm_campaign=yelp_api_v3&utm_medium=api_v3_business_search&utm_source=d2XTCJUalK6G6pYoI47s2A","review_count":8,"categories":[{"alias":"spanish","title":"Español"}],"rating":4.5,"coordinates":{"latitude":38.9916323,"longitude":-1.852598},"transactions":[],"price":"€€€","location":{"address1":"Calle Guzman El Bueno 16","address2":null,"address3":null,"city":"Albacete","zip_code":"02002","country":"ES","state":"AB","display_address":["Calle Guzman El Bueno 16","02002 Albacete"]},"phone":"+34967211138","display_phone":"967 21 11 38","distance":683.2040496157999},{"id":"parque-de-abelardo-sánchez-albacete","name":"Parque de Abelardo Sánchez","image_url":"","is_closed":false,"url":"https://www.yelp.es/biz/parque-de-abelardo-s%C3%A1nchez-albacete?adjust_creative=d2XTCJUalK6G6pYoI47s2A&utm_campaign=yelp_api_v3&utm_medium=api_v3_business_search&utm_source=d2XTCJUalK6G6pYoI47s2A","review_count":6,"categories":[{"alias":"parks","title":"Parques y jardines"}],"rating":4.5,"coordinates":{"latitude":38.985592,"longitude":-1.853428},"transactions":[],"location":{"address1":"Parque de Abelardo Sánchez","address2":"","address3":"","city":"Albacete","zip_code":"02002","country":"ES","state":"AB","display_address":["Parque de Abelardo Sánchez","02002 Albacete"]},"phone":"","display_phone":"","distance":766.4993841988},{"id":"el-torito-albacete","name":"El Torito","image_url":"https://s3-media1.fl.yelpcdn.com/bphoto/etWDw-gqzE_dyUTKSdOwCw/o.jpg","is_closed":false,"url":"https://www.yelp.es/biz/el-torito-albacete?adjust_creative=d2XTCJUalK6G6pYoI47s2A&utm_campaign=yelp_api_v3&utm_medium=api_v3_business_search&utm_source=d2XTCJUalK6G6pYoI47s2A","review_count":1,"categories":[{"alias":"pubs","title":"Pubs y bares de copas"}],"rating":5,"coordinates":{"latitude":38.9940869666799,"longitude":-1.8550318479538},"transactions":[],"price":"€","location":{"address1":"Calle Concepción, 14","address2":"","address3":"","city":"Albacete","zip_code":"02001","country":"ES","state":"AB","display_address":["Calle Concepción, 14","02001 Albacete"]},"phone":"+34617607869","display_phone":"617 60 78 69","distance":513.2304994896},{"id":"el-filo-de-la-navaja-albacete","name":"El Filo de la Navaja","image_url":"https://s3-media2.fl.yelpcdn.com/bphoto/sFEjN6ktG2Bi5CLprEhRWQ/o.jpg","is_closed":false,"url":"https://www.yelp.es/biz/el-filo-de-la-navaja-albacete?adjust_creative=d2XTCJUalK6G6pYoI47s2A&utm_campaign=yelp_api_v3&utm_medium=api_v3_business_search&utm_source=d2XTCJUalK6G6pYoI47s2A","review_count":3,"categories":[{"alias":"spanish","title":"Español"},{"alias":"tapas","title":"Bares de tapas"}],"rating":5,"coordinates":{"latitude":38.9939484,"longitude":-1.8612974},"transactions":[],"price":"€","location":{"address1":"Calle Pedro Martinez Gutierrez, 15","address2":null,"address3":null,"city":"Albacete","zip_code":"02004","country":"ES","state":"AB","display_address":["Calle Pedro Martinez Gutierrez, 15","02004 Albacete"]},"phone":"+34967227529","display_phone":"967 22 75 29","distance":204.74739636299998},{"id":"la-milagrosa-churreria-albacete","name":"La Milagrosa Churreria","image_url":"https://s3-media1.fl.yelpcdn.com/bphoto/-sFHstiEoL_1tWz8q0S9cQ/o.jpg","is_closed":false,"url":"https://www.yelp.es/biz/la-milagrosa-churreria-albacete?adjust_creative=d2XTCJUalK6G6pYoI47s2A&utm_campaign=yelp_api_v3&utm_medium=api_v3_business_search&utm_source=d2XTCJUalK6G6pYoI47s2A","review_count":2,"categories":[{"alias":"coffee","title":"Café y té"}],"rating":5,"coordinates":{"latitude":38.9930697,"longitude":-1.8564881},"transactions":[],"location":{"address1":"Calle Tinte","address2":null,"address3":null,"city":"Albacete","zip_code":"02001","country":"ES","state":"AB","display_address":["Calle Tinte","02001 Albacete"]},"phone":"","display_phone":"","distance":356.3355405546},{"id":"nuestro-bar-albacete","name":"Nuestro Bar","image_url":"https://s3-media2.fl.yelpcdn.com/bphoto/LTWIHKKDjoRJ66wfuAyHXA/o.jpg","is_closed":false,"url":"https://www.yelp.es/biz/nuestro-bar-albacete?adjust_creative=d2XTCJUalK6G6pYoI47s2A&utm_campaign=yelp_api_v3&utm_medium=api_v3_business_search&utm_source=d2XTCJUalK6G6pYoI47s2A","review_count":3,"categories":[{"alias":"spanish","title":"Español"},{"alias":"hotels","title":"Hoteles"}],"rating":4,"coordinates":{"latitude":38.9900909,"longitude":-1.848729},"transactions":[],"price":"€€","location":{"address1":"Calle Alcalde Conangla 100","address2":null,"address3":null,"city":"Albacete","zip_code":"02002","country":"ES","state":"AB","display_address":["Calle Alcalde Conangla 100","02002 Albacete"]},"phone":"+34967243373","display_phone":"967 24 33 73","distance":1041.8150038096},{"id":"panaria-albacete","name":"Panaria","image_url":"https://s3-media2.fl.yelpcdn.com/bphoto/K3to3hWhuCJiwVK5Trqh4Q/o.jpg","is_closed":false,"url":"https://www.yelp.es/biz/panaria-albacete?adjust_creative=d2XTCJUalK6G6pYoI47s2A&utm_campaign=yelp_api_v3&utm_medium=api_v3_business_search&utm_source=d2XTCJUalK6G6pYoI47s2A","review_count":2,"categories":[{"alias":"bakeries","title":"Panaderías"},{"alias":"cafeteria","title":"Cafetería"}],"rating":5,"coordinates":{"latitude":38.9948436877143,"longitude":-1.85498524457216},"transactions":[],"price":"€","location":{"address1":"Plaza del Altozano, 4","address2":"","address3":"","city":"Albacete","zip_code":"02001","country":"ES","state":"AB","display_address":["Plaza del Altozano, 4","02001 Albacete"]},"phone":"+34967675880","display_phone":"967 67 58 80","distance":555.9016828809999},{"id":"velouria-albacete","name":"Velouria","image_url":"https://s3-media1.fl.yelpcdn.com/bphoto/EnrjmqHBpaTy5lf_Dsi7Yg/o.jpg","is_closed":false,"url":"https://www.yelp.es/biz/velouria-albacete?adjust_creative=d2XTCJUalK6G6pYoI47s2A&utm_campaign=yelp_api_v3&utm_medium=api_v3_business_search&utm_source=d2XTCJUalK6G6pYoI47s2A","review_count":1,"categories":[{"alias":"bars","title":"De Copas"}],"rating":5,"coordinates":{"latitude":38.9937320554734,"longitude":-1.85427613556385},"transactions":[],"price":"€","location":{"address1":"Calle Concepcion, 24","address2":"","address3":"","city":"Albacete","zip_code":"02001","country":"ES","state":"AB","display_address":["Calle Concepcion, 24","02001 Albacete"]},"phone":"+34670032085","display_phone":"670 03 20 85","distance":560.5692034028},{"id":"aderezo-albacete","name":"Aderezo","image_url":"https://s3-media1.fl.yelpcdn.com/bphoto/44X9Y7Q2UD4UQmXz4mzlrw/o.jpg","is_closed":false,"url":"https://www.yelp.es/biz/aderezo-albacete?adjust_creative=d2XTCJUalK6G6pYoI47s2A&utm_campaign=yelp_api_v3&utm_medium=api_v3_business_search&utm_source=d2XTCJUalK6G6pYoI47s2A","review_count":1,"categories":[{"alias":"spanish","title":"Español"},{"alias":"tapas","title":"Bares de tapas"}],"rating":5,"coordinates":{"latitude":38.9929094901473,"longitude":-1.85386042745707},"transactions":[],"location":{"address1":"Calle Mayor, 51","address2":"","address3":"","city":"Albacete","zip_code":"02140","country":"ES","state":"AB","display_address":["Calle Mayor, 51","02140 Albacete"]},"phone":"+34967672329","display_phone":"967 67 23 29","distance":575.909400096},{"id":"recinto-ferial-de-albacete-albacete","name":"Recinto Ferial de Albacete","image_url":"https://s3-media2.fl.yelpcdn.com/bphoto/g9_EKgbYl474-PUnu7clQQ/o.jpg","is_closed":false,"url":"https://www.yelp.es/biz/recinto-ferial-de-albacete-albacete?adjust_creative=d2XTCJUalK6G6pYoI47s2A&utm_campaign=yelp_api_v3&utm_medium=api_v3_business_search&utm_source=d2XTCJUalK6G6pYoI47s2A","review_count":11,"categories":[{"alias":"festivals","title":"Festivales"}],"rating":4.5,"coordinates":{"latitude":38.996566,"longitude":-1.862673},"transactions":[],"location":{"address1":"Calle la Feria","address2":"","address3":"","city":"Albacete","zip_code":"02005","country":"ES","state":"AB","display_address":["Calle la Feria","02005 Albacete"]},"phone":"","display_phone":"","distance":569.7475108238},{"id":"restaurante-azabache-albacete","name":"Restaurante Azabache","image_url":"","is_closed":false,"url":"https://www.yelp.es/biz/restaurante-azabache-albacete?adjust_creative=d2XTCJUalK6G6pYoI47s2A&utm_campaign=yelp_api_v3&utm_medium=api_v3_business_search&utm_source=d2XTCJUalK6G6pYoI47s2A","review_count":1,"categories":[{"alias":"signature_cuisine","title":"Cocina de autor"},{"alias":"spanish","title":"Español"}],"rating":5,"coordinates":{"latitude":38.9979649561869,"longitude":-1.85762122892324},"transactions":[],"price":"€€","location":{"address1":"Calle Iris, 44","address2":"","address3":"","city":"Albacete","zip_code":"02005","country":"ES","state":"AB","display_address":["Calle Iris, 44","02005 Albacete"]},"phone":"","display_phone":"","distance":684.0867886991999},{"id":"l-arruzz-albacete","name":"L'arruzz","image_url":"https://s3-media1.fl.yelpcdn.com/bphoto/QtuR_kZB9bNhbVH38v5fRw/o.jpg","is_closed":false,"url":"https://www.yelp.es/biz/l-arruzz-albacete?adjust_creative=d2XTCJUalK6G6pYoI47s2A&utm_campaign=yelp_api_v3&utm_medium=api_v3_business_search&utm_source=d2XTCJUalK6G6pYoI47s2A","review_count":1,"categories":[{"alias":"mediterranean","title":"Mediterráneo"},{"alias":"tapas","title":"Bares de tapas"}],"rating":5,"coordinates":{"latitude":38.9929328997379,"longitude":-1.85254012963486},"transactions":[],"location":{"address1":"Calle de la Purísima, 1","address2":"","address3":"","city":"Albacete","zip_code":"02002","country":"ES","state":"AB","display_address":["Calle de la Purísima, 1","02002 Albacete"]},"phone":"+34967210996","display_phone":"967 21 09 96","distance":689.4627567824},{"id":"parque-abelardo-sánchez-albacete","name":"Parque Abelardo Sánchez","image_url":"https://s3-media2.fl.yelpcdn.com/bphoto/rGFqmy0Hr4aKfOIn5mkiLg/o.jpg","is_closed":false,"url":"https://www.yelp.es/biz/parque-abelardo-s%C3%A1nchez-albacete?adjust_creative=d2XTCJUalK6G6pYoI47s2A&utm_campaign=yelp_api_v3&utm_medium=api_v3_business_search&utm_source=d2XTCJUalK6G6pYoI47s2A","review_count":1,"categories":[{"alias":"dog_parks","title":"Parques para perros"}],"rating":5,"coordinates":{"latitude":38.9896629573067,"longitude":-1.8568329513073},"transactions":[],"location":{"address1":"Calle del Tinte, 8-14","address2":"","address3":"","city":"Albacete","zip_code":"02001","country":"ES","state":"AB","display_address":["Calle del Tinte, 8-14","02001 Albacete"]},"phone":"","display_phone":"","distance":424.0733692642},{"id":"pomme-sucre-albacete","name":"Pomme Sucre","image_url":"https://s3-media3.fl.yelpcdn.com/bphoto/BixN4UwHCXFUp7L7dt1G1w/o.jpg","is_closed":false,"url":"https://www.yelp.es/biz/pomme-sucre-albacete?adjust_creative=d2XTCJUalK6G6pYoI47s2A&utm_campaign=yelp_api_v3&utm_medium=api_v3_business_search&utm_source=d2XTCJUalK6G6pYoI47s2A","review_count":1,"categories":[{"alias":"desserts","title":"Pastelerías"},{"alias":"coffee","title":"Café y té"}],"rating":5,"coordinates":{"latitude":38.9959258,"longitude":-1.8567058},"transactions":[],"location":{"address1":"Plaza de la Catedral, 2","address2":"","address3":"","city":"Albacete","zip_code":"02001","country":"ES","state":"AB","display_address":["Plaza de la Catedral, 2","02001 Albacete"]},"phone":"+34967522972","display_phone":"967 52 29 72","distance":524.3021632338},{"id":"posada-del-rosario-albacete","name":"Posada del Rosario","image_url":"","is_closed":false,"url":"https://www.yelp.es/biz/posada-del-rosario-albacete?adjust_creative=d2XTCJUalK6G6pYoI47s2A&utm_campaign=yelp_api_v3&utm_medium=api_v3_business_search&utm_source=d2XTCJUalK6G6pYoI47s2A","review_count":2,"categories":[{"alias":"landmarks","title":"Lugares emblemáticos y monumentos históricos"},{"alias":"libraries","title":"Bibliotecas"}],"rating":4.5,"coordinates":{"latitude":38.992409,"longitude":-1.8545372},"transactions":[],"location":{"address1":"Rosario Calle","address2":"Calle Tinte","address3":null,"city":"Albacete","zip_code":"","country":"ES","state":"AB","display_address":["Rosario Calle","Calle Tinte","Albacete"]},"phone":"+34967237821","display_phone":"967 23 78 21","distance":512.7909243619999},{"id":"la-hacienda-albacete-2","name":"La Hacienda","image_url":"https://s3-media1.fl.yelpcdn.com/bphoto/tkHbhFoU4-6OIg2fmsmNTA/o.jpg","is_closed":false,"url":"https://www.yelp.es/biz/la-hacienda-albacete-2?adjust_creative=d2XTCJUalK6G6pYoI47s2A&utm_campaign=yelp_api_v3&utm_medium=api_v3_business_search&utm_source=d2XTCJUalK6G6pYoI47s2A","review_count":1,"categories":[{"alias":"mexican","title":"Mexicano"}],"rating":4,"coordinates":{"latitude":38.991346,"longitude":-1.853248},"transactions":[],"location":{"address1":"Calle Parra, 6","address2":"","address3":null,"city":"Albacete","zip_code":"02002","country":"ES","state":"AB","display_address":["Calle Parra, 6","02002 Albacete"]},"phone":"+34967256635","display_phone":"967 25 66 35","distance":631.4617086605999},{"id":"granburguer-albacete","name":"Granburguer","image_url":"https://s3-media4.fl.yelpcdn.com/bphoto/LH44y2O1F4X1EIvKpZIbfw/o.jpg","is_closed":false,"url":"https://www.yelp.es/biz/granburguer-albacete?adjust_creative=d2XTCJUalK6G6pYoI47s2A&utm_campaign=yelp_api_v3&utm_medium=api_v3_business_search&utm_source=d2XTCJUalK6G6pYoI47s2A","review_count":1,"categories":[{"alias":"delis","title":"Sándwiches"},{"alias":"burgers","title":"Hamburgueserías"}],"rating":4,"coordinates":{"latitude":38.9950618420386,"longitude":-1.86312468124364},"transactions":[],"location":{"address1":"Calle Octavio Cuartero, 80","address2":"","address3":"","city":"Albacete","zip_code":"02003","country":"ES","state":"AB","display_address":["Calle Octavio Cuartero, 80","02003 Albacete"]},"phone":"+34667232533","display_phone":"667 23 25 33","distance":390.02902075599997},{"id":"la-bodega-de-serapio-albacete","name":"La Bodega de Serapio","image_url":"https://s3-media1.fl.yelpcdn.com/bphoto/bqUkGPbvDxlw4lc3ADAZLw/o.jpg","is_closed":false,"url":"https://www.yelp.es/biz/la-bodega-de-serapio-albacete?adjust_creative=d2XTCJUalK6G6pYoI47s2A&utm_campaign=yelp_api_v3&utm_medium=api_v3_business_search&utm_source=d2XTCJUalK6G6pYoI47s2A","review_count":1,"categories":[{"alias":"wine_bars","title":"Vinaterías"},{"alias":"tapas","title":"Bares de tapas"}],"rating":4,"coordinates":{"latitude":38.9950345,"longitude":-1.857017},"transactions":[],"price":"€","location":{"address1":"Calle de Méndez Nuñez, 8","address2":"","address3":"","city":"Albacete","zip_code":"02001","country":"ES","state":"AB","display_address":["Calle de Méndez Nuñez, 8","02001 Albacete"]},"phone":"","display_phone":"","distance":431.6345474795999},{"id":"la-leche-militina-albacete","name":"La Leche Militina","image_url":"https://s3-media2.fl.yelpcdn.com/bphoto/YdUmXwc58plRaAztc2qmyw/o.jpg","is_closed":false,"url":"https://www.yelp.es/biz/la-leche-militina-albacete?adjust_creative=d2XTCJUalK6G6pYoI47s2A&utm_campaign=yelp_api_v3&utm_medium=api_v3_business_search&utm_source=d2XTCJUalK6G6pYoI47s2A","review_count":1,"categories":[{"alias":"cafeteria","title":"Cafetería"}],"rating":4,"coordinates":{"latitude":38.991340637207,"longitude":-1.85308957099915},"transactions":[],"price":"€","location":{"address1":"Calle de la Parra, 9","address2":"","address3":"","city":"Albacete","zip_code":"02002","country":"ES","state":"AB","display_address":["Calle de la Parra, 9","02002 Albacete"]},"phone":"+34967611373","display_phone":"967 61 13 73","distance":646.719635893},{"id":"a-la-deriva-albacete","name":"A la Deriva","image_url":"https://s3-media3.fl.yelpcdn.com/bphoto/mgXImCkEZRxD1H0tl33xxQ/o.jpg","is_closed":false,"url":"https://www.yelp.es/biz/a-la-deriva-albacete?adjust_creative=d2XTCJUalK6G6pYoI47s2A&utm_campaign=yelp_api_v3&utm_medium=api_v3_business_search&utm_source=d2XTCJUalK6G6pYoI47s2A","review_count":1,"categories":[{"alias":"tapas","title":"Bares de tapas"}],"rating":4,"coordinates":{"latitude":38.9930305,"longitude":-1.85237},"transactions":[],"price":"€€","location":{"address1":"Calle Concepciòn, 35","address2":"","address3":"","city":"Albacete","zip_code":"02002","country":"ES","state":"AB","display_address":["Calle Concepciòn, 35","02002 Albacete"]},"phone":"+34967605533","display_phone":"967 60 55 33","distance":705.7424217939999}]